[{"id":"1000","street":"11 Lê Lợi","road":11,"price":20000,"city":"Đà Nẵng","lat":16.080925,"long":108.219275,"rating":3,"driver":"lethanhdat1993","user":"datltfx18467@funix.edu.vn"},{"id":"1001","street":"22 Phan Châu Trinh","road":11,"price":20000,"city":"Đà Nẵng","lat":16.068185862166626,"long":108.2200664801261,"rating":3,"driver":"lethanhdat1994","user":"datltfx18467@funix.edu.vn"},{"id":"1002","street":"7 Phan Đăng Lưu","road":11,"price":20000,"city":"Đà Nẵng","lat":16.0376735101888,"long":108.22314091081459,"rating":2,"driver":"lethanhdat1993","user":"datltfx18467@funix.edu.vn"},{"id":"1003","street":"13 Nguyễn Tất Thành","road":11,"price":20000,"city":"Đà Nẵng","lat":16.088207266079483,"long":108.15485249809294,"rating":2,"driver":"lethanhdat1993","user":"datltfx18467@funix.edu.vn"},{"id":"1004","street":"800 Nguyễn Tất Thành","road":11,"price":20000,"city":"Đà Nẵng","lat":16.08618968097369,"long":108.21440365314349,"rating":4,"driver":"lethanhdat1993","user":"datltfx18467@funix.edu.vn"},{"id":"1005","street":"500 Ngô Quyền","road":11,"price":20000,"city":"Đà Nẵng","lat":16.08551655924147,"long":108.23906536925641,"rating":4,"driver":"lethanhdat1993","user":"datltfx18467@funix.edu.vn"},{"id":"1006","street":"100 Ngô Quyền","road":11,"price":20000,"city":"Đà Nẵng","lat":16.093010877074082,"long":108.24339859547142,"rating":5,"driver":"lethanhdat1993","user":"datltfx18467@funix.edu.vn"},{"id":"1683865451143","street":"10 Phan Châu Trinh","driver":"lethanhdat1993","road":33,"price":20000,"user":"datltfx18467@funix.edu.vn","lat":16.0523423,"long":108.2259014,"rating":1.25},{"id":"1683910513147","street":"10 Phan Châu Trinh","driver":"lethanhdat1993","price":20000,"road":44,"user":"datltfx18467@funix.edu.vn","lat":16.0523423,"long":108.2259014,"rating":4.25},{"id":"1683915749582","street":"10 Phan Châu Trinh","driver":"lethanhdat1993","price":20000,"road":33,"user":"lethanhdat1993@gmail.com","lat":16.0523423,"long":108.2259014,"rating":1.25}]